{"@id":"https://w3id.org/donnees_test","type":"FeatureCollection","@context":"https://w3id.org/locolligo/contexts/linkedplaces.jsonld","features":[{"@id":"https://w3id.org/donnees_test/93e37e12-96dc-42dd-aa4e-f2bdda82c6ec","type":"Feature","properties":{"title":"Testamento de D. Guindo y Pascual Cerezo"},"geometry":{"type":"Point","coordinates":[-3.74923,40.463667]},"types":[{"label":"1853"}, {"label":"romance"}]},{"@id":"https://w3id.org/donnees_test/0cf5b3e3-8ecd-403a-82f4-948b65bcd050","type":"Feature","properties":{"title":"Coplas nuevas paras cantar los aficionados. En una maceta hermosa"},"geometry":{"type":"Point","coordinates":[-3.74923,40.463667]},"types":[{"label":"1858"}, {"label":"romance"}]},{"@id":"https://w3id.org/donnees_test/4363c876-3759-4caa-a835-8382b6fb12e6","type":"Feature","properties":{"title":"Pasillo de D. Sancho y su mayordomo Crispin"},"geometry":{"type":"Point","coordinates":[-3.74923,40.463667]},"types":[{"label":1854}, {"label":"sainete"}]},{"@id":"https://w3id.org/donnees_test/d1ee42c1-ddd1-470f-b42a-6d162ac2c9a6","type":"Feature","properties":{"title":"Sainete nuevo. El recibo del page"},"geometry":{"type":"Point","coordinates":[-3.74923,40.463667]},"types":[{"label":1858}, {"label":"romance"}]},{"@id":"https://w3id.org/donnees_test/b975ad53-016d-4fb0-be61-8e0af2151f59","type":"Feature","properties":{"title":"Coplas al sagrado nacimiento"},"geometry":{"type":"Point","coordinates":[-3.74927,40.463667]},"types":[{"label":1856}, {"label":"decimas"}]},{"@id":"https://w3id.org/donnees_test/e9e46296-e139-4de6-8bf6-ad88d21ec00b","type":"Feature","properties":{"title":"Villancicos nuevos alegres y divertidos para cantar en estas proximas Navidades"},"geometry":{"type":"Point","coordinates":[-3.74928,40.463667]},"types":[{"label":1858},{"label":"trovos"}]},{"@id":"https://w3id.org/donnees_test/f7ac1d48-2162-47da-8810-499d423abec2","type":"Feature","properties":{"title":"Antonio Narvaez y Rosaura. Primera parte"},"geometry":{"type":"Point","coordinates":[-3.74929,40.463667]},"types":[{"label":1857}, {"label":"relaciones"}]},{"@id":"https://w3id.org/donnees_test/dfef770c-abde-472c-97e0-203ad820c465","type":"Feature","properties":{"title":"Los enamorados de Cristo"},"geometry":{"type":"Point","coordinates":[-3.7493,40.463667]},"types":[{"label":1858}, {"label":"sainete"}]},{"@id":"https://w3id.org/donnees_test/101e7b93-54bd-446e-ab86-6c668dee5534","type":"Feature","properties":{"title":"La enamorada de Cristo"},"geometry":{"type":"Point","coordinates":[-3.7493,40.463667]},"types":[{"label":1858}, {"label":"romance"}]},{"@id":"https://w3id.org/donnees_test/93908655-3863-48e3-a98e-cdd75f70fa5b","type":"Feature","properties":{"title":"Coplas al sagrado nacimiento"},"geometry":{"type":"Point","coordinates":[9.501785,56.26392]},"types":[{"label":1858},{"label":"romance"}]},{"@id":"https://w3id.org/donnees_test/657cae3b-feeb-4447-8f66-c23c8074b6d4","type":"Feature","properties":{"title":"Relacion chistosa titulada "},"geometry":{"type":"Point","coordinates":[-66.59015,18.220833]},"types":[{"label":1863},{"label":"decimas"}]},{"@id":"https://w3id.org/donnees_test/786fa144-72f2-4886-a9b0-b33ff5477bee","type":"Feature","properties":{"title":"Satira graciosa de los quince novios"},"geometry":{"type":"Point","coordinates":[-66.59015,18.220833]},"types":[{"label":1856},{"label":"romance"}]},{"@id":"https://w3id.org/donnees_test/4be0d6ea-4add-4e58-91be-7a2a5ca7362b","type":"Feature","properties":{"title":"Coplas al sagrado nacimiento"},"geometry":{"type":"Point","coordinates":[14.550072,47.516231]},"types":[{"label":1854}, {"label":"romance"}]}],"indexing":{"@type":"Dataset","name":"donnees test","description":"","license":"https://creativecommons.org/licenses/by/4.0/","identifier":"https://w3id.org/donnees_test","temporalCoverage":"1066/2022","spatialCoverage":{"@type":"GeoShape","box":"0.580101 0.00149 60.355 9.78667","geo":{"@type":"GeoShape","box":"18.220833 3.74923 56.26392 66.59015"}}}}